{
"type": "FeatureCollection",
"name": "Dusky Grouseh",
"features": [
{ "type": "Feature", "properties": { "common_name": "Dusky Grouse", "locality": "Storm Castle Trail", "observation_count": "2", "observation_date": "2022-05-17", "time_observations_started": "13:49:00", "longitude": -111.2234458, "latitude": 45.4471553 }, "geometry": { "type": "Point", "coordinates": [ -111.2234458, 45.4471553 ] } },
{ "type": "Feature", "properties": { "common_name": "Dusky Grouse", "locality": "Triple Tree Trail", "observation_count": "1", "observation_date": "2022-05-23", "time_observations_started": "14:26:00", "longitude": -111.0013533, "latitude": 45.6111705 }, "geometry": { "type": "Point", "coordinates": [ -111.0013533, 45.6111705 ] } },
{ "type": "Feature", "properties": { "common_name": "Dusky Grouse", "locality": "Bracket Creek Trail", "observation_count": "4", "observation_date": "2022-05-11", "time_observations_started": "08:45:00", "longitude": -110.879931, "latitude": 45.8587046 }, "geometry": { "type": "Point", "coordinates": [ -110.879931, 45.8587046 ] } },
{ "type": "Feature", "properties": { "common_name": "Dusky Grouse", "locality": "Bridger Bowl Ski Area", "observation_count": "3", "observation_date": "2022-06-02", "time_observations_started": "11:13:00", "longitude": -110.922296, "latitude": 45.819972 }, "geometry": { "type": "Point", "coordinates": [ -110.922296, 45.819972 ] } },
{ "type": "Feature", "properties": { "common_name": "Dusky Grouse", "locality": "Olsen to Brackett Bangtail", "observation_count": "1", "observation_date": "2022-06-23", "time_observations_started": "09:54:00", "longitude": -110.826685, "latitude": 45.81802 }, "geometry": { "type": "Point", "coordinates": [ -110.826685, 45.81802 ] } },
{ "type": "Feature", "properties": { "common_name": "Dusky Grouse", "locality": "Custer Gallatin National Forest, Bozeman US-MT 45.72712, -110.97733", "observation_count": "1", "observation_date": "2022-06-26", "time_observations_started": "15:46:00", "longitude": -110.977329, "latitude": 45.727124 }, "geometry": { "type": "Point", "coordinates": [ -110.977329, 45.727124 ] } },
{ "type": "Feature", "properties": { "common_name": "Dusky Grouse", "locality": "M Trail", "observation_count": "1", "observation_date": "2022-06-22", "time_observations_started": "09:44:00", "longitude": -110.977084, "latitude": 45.7099776 }, "geometry": { "type": "Point", "coordinates": [ -110.977084, 45.7099776 ] } },
{ "type": "Feature", "properties": { "common_name": "Dusky Grouse", "locality": "Chestnut Mountain Trail", "observation_count": "1", "observation_date": "2022-06-02", "time_observations_started": "08:06:00", "longitude": -110.88083, "latitude": 45.64486 }, "geometry": { "type": "Point", "coordinates": [ -110.88083, 45.64486 ] } },
{ "type": "Feature", "properties": { "common_name": "Dusky Grouse", "locality": "Indian Ridge", "observation_count": "3", "observation_date": "2022-06-22", "time_observations_started": "19:13:00", "longitude": -111.286829, "latitude": 45.449049 }, "geometry": { "type": "Point", "coordinates": [ -111.286829, 45.449049 ] } },
{ "type": "Feature", "properties": { "common_name": "Dusky Grouse", "locality": "M Trail", "observation_count": "9", "observation_date": "2022-07-22", "time_observations_started": "09:35:00", "longitude": -110.977084, "latitude": 45.7099776 }, "geometry": { "type": "Point", "coordinates": [ -110.977084, 45.7099776 ] } },
{ "type": "Feature", "properties": { "common_name": "Dusky Grouse", "locality": "Storm Castle Trail #185", "observation_count": "1", "observation_date": "2022-07-04", "time_observations_started": "15:00:00", "longitude": -111.0409675, "latitude": 45.4094585 }, "geometry": { "type": "Point", "coordinates": [ -111.0409675, 45.4094585 ] } },
{ "type": "Feature", "properties": { "common_name": "Dusky Grouse", "locality": "Sypes Canyon Trail", "observation_count": "1", "observation_date": "2022-08-14", "time_observations_started": "09:27:00", "longitude": -111.005162, "latitude": 45.7451709 }, "geometry": { "type": "Point", "coordinates": [ -111.005162, 45.745170900000012 ] } },
{ "type": "Feature", "properties": { "common_name": "Dusky Grouse", "locality": "Bear Canyon Trail", "observation_count": "5", "observation_date": "2022-08-17", "time_observations_started": "09:06:00", "longitude": -110.9214985, "latitude": 45.6070276 }, "geometry": { "type": "Point", "coordinates": [ -110.9214985, 45.6070276 ] } },
{ "type": "Feature", "properties": { "common_name": "Dusky Grouse", "locality": "6100 Jackson Creek Rd, Bozeman US-MT 45.73134, -110.86704", "observation_count": "1", "observation_date": "2022-08-09", "time_observations_started": "10:21:00", "longitude": -110.867036, "latitude": 45.731343 }, "geometry": { "type": "Point", "coordinates": [ -110.867036, 45.731343 ] } },
{ "type": "Feature", "properties": { "common_name": "Dusky Grouse", "locality": "Bridger Bowl Hawk Watch", "observation_count": "1", "observation_date": "2022-09-25", "time_observations_started": "11:45:00", "longitude": -110.9293129, "latitude": 45.81733 }, "geometry": { "type": "Point", "coordinates": [ -110.9293129, 45.81733 ] } },
{ "type": "Feature", "properties": { "common_name": "Dusky Grouse", "locality": "Bridger Bowl Ski Area", "observation_count": "5", "observation_date": "2022-09-09", "time_observations_started": "13:57:00", "longitude": -110.922296, "latitude": 45.819972 }, "geometry": { "type": "Point", "coordinates": [ -110.922296, 45.819972 ] } },
{ "type": "Feature", "properties": { "common_name": "Dusky Grouse", "locality": "Reflector Loop trail", "observation_count": "3", "observation_date": "2022-09-09", "time_observations_started": "08:30:00", "longitude": -111.3061, "latitude": 45.269948 }, "geometry": { "type": "Point", "coordinates": [ -111.3061, 45.269948 ] } },
{ "type": "Feature", "properties": { "common_name": "Dusky Grouse", "locality": "South Pinecrest", "observation_count": "1", "observation_date": "2022-10-29", "time_observations_started": "12:30:00", "longitude": -111.019485, "latitude": 45.6618519 }, "geometry": { "type": "Point", "coordinates": [ -111.019485, 45.6618519 ] } },
{ "type": "Feature", "properties": { "common_name": "Dusky Grouse", "locality": "Fairy Lake", "observation_count": "3", "observation_date": "2022-10-07", "time_observations_started": "10:30:00", "longitude": -110.9579551, "latitude": 45.9044338 }, "geometry": { "type": "Point", "coordinates": [ -110.9579551, 45.9044338 ] } },
{ "type": "Feature", "properties": { "common_name": "Dusky Grouse", "locality": "Custer Gallatin National Forest, Gallatin Gateway US-MT 45.41401, -111.22958", "observation_count": "2", "observation_date": "2022-10-17", "time_observations_started": "15:57:00", "longitude": -111.229582, "latitude": 45.414006 }, "geometry": { "type": "Point", "coordinates": [ -111.229582, 45.414006 ] } },
{ "type": "Feature", "properties": { "common_name": "Dusky Grouse", "locality": "Lone Mtn Trail rd.", "observation_count": "1", "observation_date": "2022-11-07", "time_observations_started": "16:35:00", "longitude": -111.329338, "latitude": 45.269426 }, "geometry": { "type": "Point", "coordinates": [ -111.329338, 45.269426 ] } },
{ "type": "Feature", "properties": { "common_name": "Dusky Grouse", "locality": "Custer Gallatin National Forest, Gallatin Gateway US-MT (45.2195,-111.3072)", "observation_count": "1", "observation_date": "2022-11-14", "time_observations_started": "10:45:00", "longitude": -111.307249, "latitude": 45.219462 }, "geometry": { "type": "Point", "coordinates": [ -111.307249, 45.219462 ] } },
{ "type": "Feature", "properties": { "common_name": "Dusky Grouse", "locality": "Langhor Creek Road (1046)", "observation_count": "1", "observation_date": "2023-02-02", "time_observations_started": "10:02:00", "longitude": -111.0179615, "latitude": 45.4970225 }, "geometry": { "type": "Point", "coordinates": [ -111.017961500000013, 45.4970225 ] } },
{ "type": "Feature", "properties": { "common_name": "Dusky Grouse", "locality": "Battle Ridge Campground", "observation_count": "1", "observation_date": "2023-04-30", "time_observations_started": "08:35:00", "longitude": -110.8785744, "latitude": 45.8837536 }, "geometry": { "type": "Point", "coordinates": [ -110.8785744, 45.8837536 ] } },
{ "type": "Feature", "properties": { "common_name": "Dusky Grouse", "locality": "M Trail", "observation_count": "2", "observation_date": "2023-04-28", "time_observations_started": "08:45:00", "longitude": -110.977084, "latitude": 45.7099776 }, "geometry": { "type": "Point", "coordinates": [ -110.977084, 45.7099776 ] } },
{ "type": "Feature", "properties": { "common_name": "Dusky Grouse", "locality": "AM Yard Birds, private", "observation_count": "1", "observation_date": "2023-05-05", "time_observations_started": "09:30:00", "longitude": -110.9344734, "latitude": 45.6722526 }, "geometry": { "type": "Point", "coordinates": [ -110.934473400000016, 45.6722526 ] } },
{ "type": "Feature", "properties": { "common_name": "Dusky Grouse", "locality": "M Trail", "observation_count": "2", "observation_date": "2023-05-18", "time_observations_started": "08:35:00", "longitude": -110.977084, "latitude": 45.7099776 }, "geometry": { "type": "Point", "coordinates": [ -110.977084, 45.7099776 ] } },
{ "type": "Feature", "properties": { "common_name": "Dusky Grouse", "locality": "Reflector trail.", "observation_count": "1", "observation_date": "2023-05-29", "time_observations_started": "17:21:00", "longitude": -111.306131, "latitude": 45.269964 }, "geometry": { "type": "Point", "coordinates": [ -111.306131, 45.269964 ] } },
{ "type": "Feature", "properties": { "common_name": "Dusky Grouse", "locality": "Leverich Canyon (trails)", "observation_count": "1", "observation_date": "2023-05-30", "time_observations_started": "09:54:00", "longitude": -111.0405371, "latitude": 45.5838493 }, "geometry": { "type": "Point", "coordinates": [ -111.0405371, 45.5838493 ] } },
{ "type": "Feature", "properties": { "common_name": "Dusky Grouse", "locality": "AM Yard Birds, private", "observation_count": "2", "observation_date": "2023-05-02", "time_observations_started": "12:00:00", "longitude": -110.9344734, "latitude": 45.6722526 }, "geometry": { "type": "Point", "coordinates": [ -110.934473400000016, 45.6722526 ] } },
{ "type": "Feature", "properties": { "common_name": "Dusky Grouse", "locality": "Storm Castle Trail", "observation_count": "3", "observation_date": "2023-05-07", "time_observations_started": "08:00:00", "longitude": -111.2234458, "latitude": 45.4471553 }, "geometry": { "type": "Point", "coordinates": [ -111.2234458, 45.4471553 ] } },
{ "type": "Feature", "properties": { "common_name": "Dusky Grouse", "locality": "North Cottonwood Trail", "observation_count": "1", "observation_date": "2023-05-20", "time_observations_started": "11:46:00", "longitude": -111.0766372, "latitude": 45.9189347 }, "geometry": { "type": "Point", "coordinates": [ -111.0766372, 45.9189347 ] } },
{ "type": "Feature", "properties": { "common_name": "Dusky Grouse", "locality": "Beaver Creek Campground", "observation_count": "1", "observation_date": "2023-05-28", "time_observations_started": "07:32:00", "longitude": -111.3741589, "latitude": 44.8560513 }, "geometry": { "type": "Point", "coordinates": [ -111.3741589, 44.8560513 ] } },
{ "type": "Feature", "properties": { "common_name": "Dusky Grouse", "locality": "Newhall property (private)", "observation_count": "5", "observation_date": "2023-05-19", "time_observations_started": "09:58:00", "longitude": -110.9355165, "latitude": 45.7367834 }, "geometry": { "type": "Point", "coordinates": [ -110.9355165, 45.7367834 ] } },
{ "type": "Feature", "properties": { "common_name": "Dusky Grouse", "locality": "M Trail", "observation_count": "4", "observation_date": "2023-05-02", "time_observations_started": "08:35:00", "longitude": -110.977084, "latitude": 45.7099776 }, "geometry": { "type": "Point", "coordinates": [ -110.977084, 45.7099776 ] } },
{ "type": "Feature", "properties": { "common_name": "Dusky Grouse", "locality": "M Trail", "observation_count": "4", "observation_date": "2023-05-07", "time_observations_started": "08:02:00", "longitude": -110.977084, "latitude": 45.7099776 }, "geometry": { "type": "Point", "coordinates": [ -110.977084, 45.7099776 ] } },
{ "type": "Feature", "properties": { "common_name": "Dusky Grouse", "locality": "Grassy mountain trail", "observation_count": "1", "observation_date": "2023-06-16", "time_observations_started": "09:45:00", "longitude": -110.8530796, "latitude": 45.8198377 }, "geometry": { "type": "Point", "coordinates": [ -110.8530796, 45.8198377 ] } },
{ "type": "Feature", "properties": { "common_name": "Dusky Grouse", "locality": "Chestnut Mountain Trail", "observation_count": "1", "observation_date": "2023-06-30", "time_observations_started": "08:41:00", "longitude": -110.88083, "latitude": 45.64486 }, "geometry": { "type": "Point", "coordinates": [ -110.88083, 45.64486 ] } },
{ "type": "Feature", "properties": { "common_name": "Dusky Grouse", "locality": "Bridger Bowl Ski Area", "observation_count": "1", "observation_date": "2023-06-12", "time_observations_started": "09:51:00", "longitude": -110.922296, "latitude": 45.819972 }, "geometry": { "type": "Point", "coordinates": [ -110.922296, 45.819972 ] } },
{ "type": "Feature", "properties": { "common_name": "Dusky Grouse", "locality": "Triple Tree Trail", "observation_count": "1", "observation_date": "2023-06-22", "time_observations_started": "18:05:00", "longitude": -111.0013533, "latitude": 45.6111705 }, "geometry": { "type": "Point", "coordinates": [ -111.0013533, 45.6111705 ] } },
{ "type": "Feature", "properties": { "common_name": "Dusky Grouse", "locality": "Mount Ellis North Flank", "observation_count": "1", "observation_date": "2023-06-15", "time_observations_started": "07:02:00", "longitude": -110.9620242, "latitude": 45.6248332 }, "geometry": { "type": "Point", "coordinates": [ -110.962024200000016, 45.6248332 ] } },
{ "type": "Feature", "properties": { "common_name": "Dusky Grouse", "locality": "Kirk Hill Nature Trail", "observation_count": "1", "observation_date": "2023-06-05", "time_observations_started": "09:17:00", "longitude": -111.0633467, "latitude": 45.5905462 }, "geometry": { "type": "Point", "coordinates": [ -111.0633467, 45.5905462 ] } },
{ "type": "Feature", "properties": { "common_name": "Dusky Grouse", "locality": "Bridger Foothills Trail, Bozeman, Montana, US (45.723, -110.978)", "observation_count": "1", "observation_date": "2023-06-20", "time_observations_started": "10:30:00", "longitude": -110.9781262, "latitude": 45.7234808 }, "geometry": { "type": "Point", "coordinates": [ -110.9781262, 45.7234808 ] } },
{ "type": "Feature", "properties": { "common_name": "Dusky Grouse", "locality": "Bridger-burn-private", "observation_count": "1", "observation_date": "2023-06-18", "time_observations_started": "07:19:00", "longitude": -110.910984, "latitude": 45.716921 }, "geometry": { "type": "Point", "coordinates": [ -110.910984, 45.716921 ] } },
{ "type": "Feature", "properties": { "common_name": "Dusky Grouse", "locality": "Chestnut Mountain Trail", "observation_count": "1", "observation_date": "2023-06-25", "time_observations_started": "08:31:00", "longitude": -110.88083, "latitude": 45.64486 }, "geometry": { "type": "Point", "coordinates": [ -110.88083, 45.64486 ] } },
{ "type": "Feature", "properties": { "common_name": "Dusky Grouse", "locality": "9090 Saddle Mountain Rd, Bozeman US-MT 45.76437, -111.00303", "observation_count": "5", "observation_date": "2023-06-28", "time_observations_started": "09:00:00", "longitude": -111.003028, "latitude": 45.764368 }, "geometry": { "type": "Point", "coordinates": [ -111.003028, 45.764368 ] } },
{ "type": "Feature", "properties": { "common_name": "Dusky Grouse", "locality": "Bridger Bowl Ski Area", "observation_count": "1", "observation_date": "2023-06-07", "time_observations_started": "10:15:00", "longitude": -110.8966398, "latitude": 45.8173749 }, "geometry": { "type": "Point", "coordinates": [ -110.8966398, 45.8173749 ] } },
{ "type": "Feature", "properties": { "common_name": "Dusky Grouse", "locality": "Beasley Creek Rd, Bozeman US-MT 45.71649, -110.91007", "observation_count": "1", "observation_date": "2022-06-01", "time_observations_started": "08:24:00", "longitude": -110.910065, "latitude": 45.716485 }, "geometry": { "type": "Point", "coordinates": [ -110.910065, 45.716485 ] } },
{ "type": "Feature", "properties": { "common_name": "Dusky Grouse", "locality": "Triple Tree Trail", "observation_count": "2", "observation_date": "2022-06-05", "time_observations_started": "07:28:00", "longitude": -111.0013533, "latitude": 45.6111705 }, "geometry": { "type": "Point", "coordinates": [ -111.0013533, 45.6111705 ] } },
{ "type": "Feature", "properties": { "common_name": "Dusky Grouse", "locality": "Frazier Lake and Bridge Ridge", "observation_count": "1", "observation_date": "2022-06-26", "time_observations_started": "15:37:00", "longitude": -110.9766089, "latitude": 45.9236149 }, "geometry": { "type": "Point", "coordinates": [ -110.9766089, 45.9236149 ] } },
{ "type": "Feature", "properties": { "common_name": "Dusky Grouse", "locality": "Gallatin Crest Trail, Hyalite Peak to Crater Lake", "observation_count": "1", "observation_date": "2022-07-26", "time_observations_started": "11:30:00", "longitude": -110.9717826, "latitude": 45.3672122 }, "geometry": { "type": "Point", "coordinates": [ -110.9717826, 45.3672122 ] } },
{ "type": "Feature", "properties": { "common_name": "Dusky Grouse", "locality": "Lone Mountain Ranch", "observation_count": "1", "observation_date": "2022-06-01", "time_observations_started": "08:30:00", "longitude": -111.3246765, "latitude": 45.2769852 }, "geometry": { "type": "Point", "coordinates": [ -111.3246765, 45.2769852 ] } },
{ "type": "Feature", "properties": { "common_name": "Dusky Grouse", "locality": "Bridger Bowl Hawk Watch", "observation_count": "2", "observation_date": "2022-09-09", "time_observations_started": "09:20:00", "longitude": -110.9293129, "latitude": 45.81733 }, "geometry": { "type": "Point", "coordinates": [ -110.9293129, 45.81733 ] } },
{ "type": "Feature", "properties": { "common_name": "Dusky Grouse", "locality": "Bridger Bowl Hawk Watch", "observation_count": "6", "observation_date": "2022-09-12", "time_observations_started": "09:45:00", "longitude": -110.9293129, "latitude": 45.81733 }, "geometry": { "type": "Point", "coordinates": [ -110.9293129, 45.81733 ] } },
{ "type": "Feature", "properties": { "common_name": "Dusky Grouse", "locality": "Bridger Bowl Hawk Watch", "observation_count": "8", "observation_date": "2022-09-13", "time_observations_started": "09:15:00", "longitude": -110.9293129, "latitude": 45.81733 }, "geometry": { "type": "Point", "coordinates": [ -110.9293129, 45.81733 ] } },
{ "type": "Feature", "properties": { "common_name": "Dusky Grouse", "locality": "Bridger Bowl Hawk Watch", "observation_count": "1", "observation_date": "2022-09-17", "time_observations_started": "09:15:00", "longitude": -110.9293129, "latitude": 45.81733 }, "geometry": { "type": "Point", "coordinates": [ -110.9293129, 45.81733 ] } },
{ "type": "Feature", "properties": { "common_name": "Dusky Grouse", "locality": "Bridger Bowl Hawk Watch", "observation_count": "7", "observation_date": "2022-09-19", "time_observations_started": "18:49:00", "longitude": -110.9293129, "latitude": 45.81733 }, "geometry": { "type": "Point", "coordinates": [ -110.9293129, 45.81733 ] } },
{ "type": "Feature", "properties": { "common_name": "Dusky Grouse", "locality": "Bridger Bowl Hawk Watch", "observation_count": "5", "observation_date": "2022-09-30", "time_observations_started": "12:05:00", "longitude": -110.9293129, "latitude": 45.81733 }, "geometry": { "type": "Point", "coordinates": [ -110.9293129, 45.81733 ] } },
{ "type": "Feature", "properties": { "common_name": "Dusky Grouse", "locality": "Bridger Bowl Hawk Watch", "observation_count": "4", "observation_date": "2022-10-03", "time_observations_started": "08:50:00", "longitude": -110.9293129, "latitude": 45.81733 }, "geometry": { "type": "Point", "coordinates": [ -110.9293129, 45.81733 ] } },
{ "type": "Feature", "properties": { "common_name": "Dusky Grouse", "locality": "Bridger Bowl Hawk Watch", "observation_count": "1", "observation_date": "2022-10-12", "time_observations_started": "08:00:00", "longitude": -110.9293129, "latitude": 45.81733 }, "geometry": { "type": "Point", "coordinates": [ -110.9293129, 45.81733 ] } },
{ "type": "Feature", "properties": { "common_name": "Dusky Grouse", "locality": "Custer Gallatin National Forest, Gallatin Gateway US-MT 45.15533, -111.09248", "observation_count": "8", "observation_date": "2022-10-10", "time_observations_started": "13:56:00", "longitude": -111.092479, "latitude": 45.155328 }, "geometry": { "type": "Point", "coordinates": [ -111.092479, 45.155328 ] } },
{ "type": "Feature", "properties": { "common_name": "Dusky Grouse", "locality": "Olson Creek Road, Bozeman, Montana, US (45.808, -110.799)", "observation_count": "1", "observation_date": "2022-10-24", "time_observations_started": "14:48:00", "longitude": -110.7989602, "latitude": 45.8082041 }, "geometry": { "type": "Point", "coordinates": [ -110.79896020000001, 45.8082041 ] } },
{ "type": "Feature", "properties": { "common_name": "Dusky Grouse", "locality": "M Trail", "observation_count": "5", "observation_date": "2023-05-04", "time_observations_started": "17:47:00", "longitude": -110.977084, "latitude": 45.7099776 }, "geometry": { "type": "Point", "coordinates": [ -110.977084, 45.7099776 ] } },
{ "type": "Feature", "properties": { "common_name": "Dusky Grouse", "locality": "Mount Ellis North Flank", "observation_count": "1", "observation_date": "2023-06-15", "time_observations_started": "08:31:00", "longitude": -110.9620242, "latitude": 45.6248332 }, "geometry": { "type": "Point", "coordinates": [ -110.962024200000016, 45.6248332 ] } },
{ "type": "Feature", "properties": { "common_name": "Dusky Grouse", "locality": "Newhall Property, 59715, Bozeman US-MT 45.73619, -110.93420", "observation_count": "1", "observation_date": "2023-06-18", "time_observations_started": "08:04:00", "longitude": -110.934205, "latitude": 45.736187 }, "geometry": { "type": "Point", "coordinates": [ -110.934205, 45.736187 ] } },
{ "type": "Feature", "properties": { "common_name": "Dusky Grouse", "locality": "Above the M", "observation_count": "2", "observation_date": "2023-06-24", "time_observations_started": "07:45:00", "longitude": -110.9705508, "latitude": 45.7146001 }, "geometry": { "type": "Point", "coordinates": [ -110.9705508, 45.7146001 ] } }
]
}
